{
  "home": {
    "venue": {
      "name_en": "Goyang Stadium",
      "name_kr": "고양종합운동장",
      "lat": 37.6556,
      "lng": 126.7714
    },
    "available_count": 87,
    "total_count": 90,
    "lowest_price_krw": 22000,
    "last_update": "2026-02-04 12:00:00"
  },
  "map": {
    "venue": {
      "name_en": "Goyang Stadium",
      "lat": 37.6556,
      "lng": 126.7714,
      "type": "venue"
    },
    "local_spots": [
      {
        "name_en": "HYBE INSIGHT",
        "category": "bts",
        "spot_tag": "BTS Museum",
        "lat": 37.526,
        "lng": 127.0405
      },
      {
        "name_en": "HYBE Headquarters",
        "category": "bts",
        "spot_tag": "BTS Home",
        "lat": 37.528,
        "lng": 127.04
      },
      {
        "name_en": "Hongdae Busking Street",
        "category": "bts",
        "spot_tag": "Trainee Memory",
        "lat": 37.5563,
        "lng": 126.922
      },
      {
        "name_en": "MBC Sangam",
        "category": "bts",
        "spot_tag": "Music Show",
        "lat": 37.5786,
        "lng": 126.8918
      },
      {
        "name_en": "Gwangjang Market",
        "category": "bts",
        "spot_tag": "Debut Memory",
        "lat": 37.57,
        "lng": 127.0098
      },
      {
        "name_en": "Ilsan Food Street",
        "category": "restaurant",
        "spot_tag": "Local Eats",
        "lat": 37.658,
        "lng": 126.772
      },
      {
        "name_en": "La Festa Restaurants",
        "category": "restaurant",
        "spot_tag": "Dining Hub",
        "lat": 37.6575,
        "lng": 126.7705
      },
      {
        "name_en": "Western Dom Food Court",
        "category": "restaurant",
        "spot_tag": "Food Court",
        "lat": 37.663,
        "lng": 126.762
      },
      {
        "name_en": "Ilsan Lake Park Cafe Street",
        "category": "cafe",
        "spot_tag": "Lake View",
        "lat": 37.659,
        "lng": 126.76
      },
      {
        "name_en": "La Festa Cafes",
        "category": "cafe",
        "spot_tag": "Trendy Cafe",
        "lat": 37.6572,
        "lng": 126.771
      },
      {
        "name_en": "Ilsan Lake Park",
        "category": "hotspot",
        "spot_tag": "Must Visit",
        "lat": 37.658,
        "lng": 126.759
      },
      {
        "name_en": "One Mount",
        "category": "hotspot",
        "spot_tag": "Entertainment",
        "lat": 37.665,
        "lng": 126.751
      },
      {
        "name_en": "Starfield Goyang",
        "category": "hotspot",
        "spot_tag": "Shopping",
        "lat": 37.645,
        "lng": 126.895
      }
    ],
    "hotels": [
      {
        "id": "hotel_50905",
        "name_en": "Boutiquehotel K Ilsan",
        "lat": 37.6575,
        "lng": 126.7705,
        "price_krw": 89000,
        "booking_url": "https://www.agoda.com/ko-kr/boutiquehotel-k-ilsan/hotel/goyang-si-kr.html"
      },
      {
        "id": "hotel_69304",
        "name_en": "Urban-Est Hotel Goyang",
        "lat": 37.654,
        "lng": 126.773,
        "price_krw": 75000,
        "booking_url": "https://www.agoda.com/ko-kr/h31249339/hotel/goyang-si-kr.html"
      },
      {
        "id": "hotel_41495",
        "name_en": "Ilsan Kintex Suite Room",
        "lat": 37.656,
        "lng": 126.769,
        "price_krw": 65000,
        "booking_url": "https://www.agoda.com/ko-kr/ilsan-kintex-suite-room/hotel/goyang-si-kr.html"
      },
      {
        "id": "hotel_19685",
        "name_en": "Sono Calm Goyang",
        "lat": 37.658,
        "lng": 126.77,
        "price_krw": 165000,
        "booking_url": "https://www.agoda.com/ko-kr/the-mvl-hotel-goyang/hotel/goyang-si-kr.html"
      },
      {
        "id": "hotel_71135",
        "name_en": "Antives Hotel Ilsan",
        "lat": 37.6555,
        "lng": 126.775,
        "price_krw": 85000,
        "booking_url": "https://www.agoda.com/ko-kr/antives-hotel-ilsan/hotel/goyang-si-kr.html"
      },
      {
        "id": "hotel_72852",
        "name_en": "Goyang Yuji Hotel",
        "lat": 37.652,
        "lng": 126.768,
        "price_krw": 55000,
        "booking_url": "https://www.agoda.com/ko-kr/goyang-yuji-hotel/hotel/goyang-si-kr.html"
      },
      {
        "id": "hotel_57882",
        "name_en": "Hotel Cleo Ilsan",
        "lat": 37.6585,
        "lng": 126.765,
        "price_krw": 79000,
        "booking_url": "https://www.agoda.com/cleopatra-hotel/hotel/goyang-si-kr.html"
      },
      {
        "id": "hotel_48482",
        "name_en": "Gloucester Hotel Kintex",
        "lat": 37.662,
        "lng": 126.76,
        "price_krw": 125000,
        "booking_url": "https://www.agoda.com/ko-kr/kintex-by-k-tree/hotel/goyang-si-kr.html"
      },
      {
        "id": "hotel_22827",
        "name_en": "The MVL Hotel Goyang",
        "lat": 37.665,
        "lng": 126.752,
        "price_krw": 155000,
        "booking_url": "https://www.agoda.com/ko-kr/the-mvl-hotel-goyang/hotel/goyang-si-kr.html"
      },
      {
        "id": "hotel_55221",
        "name_en": "The MVL Hotel Kintex",
        "lat": 37.6715,
        "lng": 126.7495,
        "price_krw": 145000,
        "booking_url": "https://www.agoda.com/en-ie/the-mvl-hotel-kintex-h73813327/hotel/goyang-si-kr.html"
      },
      {
        "id": "hotel_19004",
        "name_en": "Kintex by K-Tree",
        "lat": 37.6693,
        "lng": 126.7458,
        "price_krw": 89000,
        "booking_url": "https://www.agoda.com/ko-kr/kintex-by-k-tree/hotel/goyang-si-kr.html"
      },
      {
        "id": "hotel_89931",
        "name_en": "MVL Hotel Kintex",
        "lat": 37.6701,
        "lng": 126.7445,
        "price_krw": 195000,
        "booking_url": "https://www.agoda.com/ko-kr/the-mvl-hotel-kintex/hotel/goyang-si-kr.html"
      },
      {
        "id": "hotel_gy001",
        "name_en": "Ramada Encore by Wyndham Goyang Soho",
        "lat": 37.6543,
        "lng": 126.7689,
        "price_krw": 95000,
        "booking_url": "https://www.agoda.com/ko-kr/ramada-encore-by-wyndham-goyang-soho/hotel/goyang-si-kr.html"
      },
      {
        "id": "hotel_gy002",
        "name_en": "N Hotel Kintex",
        "lat": 37.6685,
        "lng": 126.7502,
        "price_krw": 85000,
        "booking_url": "https://www.agoda.com/ko-kr/n-hotel-kintex/hotel/goyang-si-kr.html"
      },
      {
        "id": "hotel_gy003",
        "name_en": "Stars Hotel Ilsan",
        "lat": 37.6578,
        "lng": 126.7732,
        "price_krw": 68000,
        "booking_url": "https://www.agoda.com/ko-kr/stars-hotel-ilsan/hotel/goyang-si-kr.html"
      },
      {
        "id": "hotel_gy004",
        "name_en": "Benikea Premier Hotel Central Plaza",
        "lat": 37.6512,
        "lng": 126.7756,
        "price_krw": 110000,
        "booking_url": "https://www.agoda.com/ko-kr/benikea-premier-central-plaza-hotel/hotel/goyang-si-kr.html"
      },
      {
        "id": "hotel_gy005",
        "name_en": "Hotel Queen Ilsan",
        "lat": 37.6567,
        "lng": 126.7698,
        "price_krw": 72000,
        "booking_url": "https://www.agoda.com/ko-kr/hotel-queen-ilsan/hotel/goyang-si-kr.html"
      },
      {
        "id": "hotel_gy006",
        "name_en": "Stay Hotel Goyang",
        "lat": 37.6598,
        "lng": 126.7665,
        "price_krw": 59000,
        "booking_url": "https://www.agoda.com/ko-kr/stay-hotel-goyang/hotel/goyang-si-kr.html"
      },
      {
        "id": "hotel_gy007",
        "name_en": "Kobos Hotel Ilsan",
        "lat": 37.6545,
        "lng": 126.7778,
        "price_krw": 78000,
        "booking_url": "https://www.agoda.com/ko-kr/kobos-hotel/hotel/goyang-si-kr.html"
      },
      {
        "id": "hotel_gy008",
        "name_en": "Hotel Morning Calm Goyang",
        "lat": 37.6489,
        "lng": 126.7823,
        "price_krw": 65000,
        "booking_url": "https://www.agoda.com/ko-kr/hotel-morning-calm-goyang/hotel/goyang-si-kr.html"
      },
      {
        "id": "hotel_gy009",
        "name_en": "Luce Hotel Ilsan",
        "lat": 37.6534,
        "lng": 126.7712,
        "price_krw": 82000,
        "booking_url": "https://www.agoda.com/ko-kr/luce-hotel-ilsan/hotel/goyang-si-kr.html"
      },
      {
        "id": "hotel_gy010",
        "name_en": "Hotel M Kintex",
        "lat": 37.6672,
        "lng": 126.7534,
        "price_krw": 98000,
        "booking_url": "https://www.agoda.com/ko-kr/hotel-m-kintex/hotel/goyang-si-kr.html"
      },
      {
        "id": "hotel_gy011",
        "name_en": "Hotel Inspire Ilsan",
        "lat": 37.6556,
        "lng": 126.7745,
        "price_krw": 75000,
        "booking_url": "https://www.agoda.com/ko-kr/hotel-inspire-ilsan/hotel/goyang-si-kr.html"
      },
      {
        "id": "hotel_gy012",
        "name_en": "Kintex Hotel",
        "lat": 37.6698,
        "lng": 126.7478,
        "price_krw": 105000,
        "booking_url": "https://www.agoda.com/ko-kr/kintex-hotel/hotel/goyang-si-kr.html"
      },
      {
        "id": "hotel_gy013",
        "name_en": "Palace Hotel Ilsan",
        "lat": 37.6523,
        "lng": 126.7801,
        "price_krw": 88000,
        "booking_url": "https://www.agoda.com/ko-kr/palace-hotel-ilsan/hotel/goyang-si-kr.html"
      },
      {
        "id": "hotel_gy014",
        "name_en": "Hotel Diamond Ilsan",
        "lat": 37.6601,
        "lng": 126.7678,
        "price_krw": 69000,
        "booking_url": "https://www.agoda.com/ko-kr/hotel-diamond-ilsan/hotel/goyang-si-kr.html"
      },
      {
        "id": "hotel_gy015",
        "name_en": "Grand Hotel Goyang",
        "lat": 37.6478,
        "lng": 126.7856,
        "price_krw": 125000,
        "booking_url": "https://www.agoda.com/ko-kr/grand-hotel-goyang/hotel/goyang-si-kr.html"
      },
      {
        "id": "hotel_85853",
        "name_en": "The Guesthouse DMZ Stay",
        "lat": 37.715,
        "lng": 126.725,
        "price_krw": 65000,
        "booking_url": "https://www.agoda.com/the-guesthouse-dmz-stay/hotel/paju-si-kr.html"
      },
      {
        "id": "hotel_55660",
        "name_en": "DMZ Hotel & Tour Guide",
        "lat": 37.718,
        "lng": 126.715,
        "price_krw": 85000,
        "booking_url": "https://www.agoda.com/dmz-stay-guide-center-dmz/hotel/paju-si-kr.html"
      },
      {
        "id": "hotel_10820",
        "name_en": "GRAZIE Hotel Paju",
        "lat": 37.725,
        "lng": 126.72,
        "price_krw": 75000,
        "booking_url": "https://www.agoda.com/grazie-hotel/hotel/paju-si-kr.html"
      },
      {
        "id": "hotel_35387",
        "name_en": "DMZ Hotel & Tour Guide",
        "lat": 37.73,
        "lng": 126.71,
        "price_krw": 95000,
        "booking_url": "https://www.agoda.com/dmz-stay-guide-center-dmz/hotel/paju-si-kr.html"
      },
      {
        "id": "hotel_62824",
        "name_en": "Nine Tree Premier Hotel",
        "lat": 37.56,
        "lng": 126.918,
        "price_krw": 145000,
        "booking_url": "https://www.agoda.com/ko-kr/nine-tree-premier-hotel-insadong/hotel/seoul-kr.html"
      },
      {
        "id": "hotel_99279",
        "name_en": "Mercure Ambassador Seoul Hongdae",
        "lat": 37.558,
        "lng": 126.921,
        "price_krw": 155000,
        "booking_url": "https://www.agoda.com/ko-kr/mercure-ambassador-seoul-hongdae/hotel/seoul-kr.html"
      },
      {
        "id": "hotel_20887",
        "name_en": "RYSE Autograph Collection",
        "lat": 37.5563,
        "lng": 126.922,
        "price_krw": 250000,
        "booking_url": "https://www.agoda.com/ko-kr/ryse-autograph-collection_2/hotel/seoul-kr.html"
      },
      {
        "id": "hotel_41184",
        "name_en": "L7 Hongdae by Lotte",
        "lat": 37.557,
        "lng": 126.9235,
        "price_krw": 175000,
        "booking_url": "https://www.agoda.com/ko-kr/l7-hongdae-by-lotte/hotel/seoul-kr.html"
      },
      {
        "id": "hotel_43014",
        "name_en": "24 Guesthouse Hongdae",
        "lat": 37.5545,
        "lng": 126.92,
        "price_krw": 45000,
        "booking_url": "https://www.agoda.com/ko-kr/24-guesthouse-hongdae/hotel/seoul-kr.html"
      },
      {
        "id": "hotel_21568",
        "name_en": "Marigold Hotel Hongdae",
        "lat": 37.5535,
        "lng": 126.9195,
        "price_krw": 89000,
        "booking_url": "https://www.agoda.com/ko-kr/marigold-hotel/hotel/seoul-kr.html"
      },
      {
        "id": "hotel_18462",
        "name_en": "Jun Guesthouse Hongdae",
        "lat": 37.556,
        "lng": 126.924,
        "price_krw": 55000,
        "booking_url": "https://www.agoda.com/ko-kr/jun-guesthouse-hongdae/hotel/seoul-kr.html"
      },
      {
        "id": "hotel_66198",
        "name_en": "Hongdae Chef Guesthouse",
        "lat": 37.555,
        "lng": 126.9225,
        "price_krw": 35000,
        "booking_url": "https://www.agoda.com/hongdae-chef-guesthouse/hotel/seoul-kr.html"
      },
      {
        "id": "hotel_70733",
        "name_en": "Hongdae Style Guesthouse",
        "lat": 37.554,
        "lng": 126.9215,
        "price_krw": 65000,
        "booking_url": "https://www.agoda.com/hongdae-style-guesthouse_2/hotel/seoul-kr.html"
      },
      {
        "id": "hotel_47087",
        "name_en": "Stanford Hotel Seoul",
        "lat": 37.5555,
        "lng": 126.925,
        "price_krw": 138000,
        "booking_url": "https://www.agoda.com/ko-kr/stanford-hotel-seoul/hotel/seoul-kr.html"
      },
      {
        "id": "hotel_97212",
        "name_en": "Four Seasons Hotel Seoul",
        "lat": 37.576,
        "lng": 126.9769,
        "price_krw": 520000,
        "booking_url": "https://www.agoda.com/ko-kr/four-seasons-hotel-seoul/hotel/seoul-kr.html"
      },
      {
        "id": "hotel_38784",
        "name_en": "Goong Guesthouse Gwanghwamun",
        "lat": 37.575,
        "lng": 126.9775,
        "price_krw": 55000,
        "booking_url": "https://www.agoda.com/ko-kr/goong-guesthouse-gwanghwamun/hotel/seoul-kr.html"
      },
      {
        "id": "hotel_99082",
        "name_en": "Somerset Palace Seoul",
        "lat": 37.5755,
        "lng": 126.978,
        "price_krw": 165000,
        "booking_url": "https://www.agoda.com/ko-kr/somerset-palace-seoul/hotel/seoul-kr.html"
      },
      {
        "id": "hotel_91729",
        "name_en": "Fraser Place Central Seoul",
        "lat": 37.5665,
        "lng": 126.9795,
        "price_krw": 195000,
        "booking_url": "https://www.agoda.com/ko-kr/fraser-place-central-seoul-residence/hotel/seoul-kr.html"
      },
      {
        "id": "hotel_07871",
        "name_en": "Lotte Hotel Seoul",
        "lat": 37.5659,
        "lng": 126.9805,
        "price_krw": 280000,
        "booking_url": "https://www.agoda.com/ko-kr/lotte-hotel-seoul/hotel/seoul-kr.html"
      },
      {
        "id": "hotel_08635",
        "name_en": "The Westin Chosun Seoul",
        "lat": 37.5658,
        "lng": 126.9813,
        "price_krw": 310000,
        "booking_url": "https://www.agoda.com/ko-kr/the-westin-chosun-seoul/hotel/seoul-kr.html"
      },
      {
        "id": "hotel_72150",
        "name_en": "Glad Live Gangnam",
        "lat": 37.546,
        "lng": 127.054,
        "price_krw": 155000,
        "booking_url": "https://www.agoda.com/ko-kr/glad-live-gangnam_2/hotel/seoul-kr.html"
      },
      {
        "id": "hotel_42100",
        "name_en": "Hotel Cappuccino Seongsu",
        "lat": 37.5443,
        "lng": 127.0557,
        "price_krw": 95000,
        "booking_url": "https://www.agoda.com/ko-kr/hotel-cappuccino-seoul/hotel/seoul-kr.html"
      },
      {
        "id": "hotel_05084",
        "name_en": "Hotel POCO Seongsu",
        "lat": 37.5435,
        "lng": 127.055,
        "price_krw": 125000,
        "booking_url": "https://www.agoda.com/ko-kr/hotel-poco/hotel/seoul-kr.html"
      },
      {
        "id": "hotel_56387",
        "name_en": "Guesthouse Soo Seoul",
        "lat": 37.544,
        "lng": 127.0545,
        "price_krw": 48000,
        "booking_url": "https://www.agoda.com/ko-kr/guesthouse-soo/hotel/seoul-kr.html"
      },
      {
        "id": "hotel_64879",
        "name_en": "H Avenue Hotel Kondae Seongsu",
        "lat": 37.545,
        "lng": 127.0565,
        "price_krw": 95000,
        "booking_url": "https://www.agoda.com/h-avenue-hotel-kondae-seongsu/hotel/seoul-kr.html"
      },
      {
        "id": "hotel_43665",
        "name_en": "Jamsil Guesthouse Seoul",
        "lat": 37.5455,
        "lng": 127.057,
        "price_krw": 65000,
        "booking_url": "https://www.agoda.com/ko-kr/jamsil-guesthouse-seoul/hotel/seoul-kr.html"
      },
      {
        "id": "hotel_55132",
        "name_en": "Park Hyatt Busan",
        "lat": 35.1631,
        "lng": 129.1636,
        "price_krw": 380000,
        "booking_url": "https://www.agoda.com/ko-kr/park-hyatt-busan/hotel/busan-kr.html"
      },
      {
        "id": "hotel_82865",
        "name_en": "Shilla Stay Haeundae",
        "lat": 35.162,
        "lng": 129.165,
        "price_krw": 165000,
        "booking_url": "https://www.agoda.com/ko-kr/shilla-stay-haeundae/hotel/busan-kr.html"
      },
      {
        "id": "hotel_46786",
        "name_en": "Lotte Hotel Busan",
        "lat": 35.1615,
        "lng": 129.1635,
        "price_krw": 220000,
        "booking_url": "https://www.agoda.com/ko-kr/lotte-hotel-busan/hotel/busan-kr.html"
      },
      {
        "id": "hotel_39528",
        "name_en": "Toyoko Inn Busan Haeundae",
        "lat": 35.16,
        "lng": 129.162,
        "price_krw": 75000,
        "booking_url": "https://www.agoda.com/ko-kr/toyoko-inn-busan-haeundae-1_4/hotel/busan-kr.html"
      },
      {
        "id": "hotel_70763",
        "name_en": "Novotel Ambassador Busan",
        "lat": 35.161,
        "lng": 129.164,
        "price_krw": 180000,
        "booking_url": "https://www.agoda.com/ko-kr/novotel-ambassador-busan_8/hotel/busan-kr.html"
      },
      {
        "id": "hotel_30919",
        "name_en": "Haeundae Grand Hotel",
        "lat": 35.1625,
        "lng": 129.166,
        "price_krw": 185000,
        "booking_url": "https://www.agoda.com/ko-kr/haeundae-grand-hotel/hotel/busan-kr.html"
      },
      {
        "id": "hotel_10776",
        "name_en": "Haeundae Seacloud Hotel",
        "lat": 35.1595,
        "lng": 129.1625,
        "price_krw": 165000,
        "booking_url": "https://www.agoda.com/ko-kr/haeundae-seacloud-hotel-residence/hotel/busan-kr.html"
      },
      {
        "id": "hotel_21259",
        "name_en": "Kimchee Haeundae Guesthouse",
        "lat": 35.158,
        "lng": 129.161,
        "price_krw": 28000,
        "booking_url": "https://www.agoda.com/ko-kr/kimchee-haeundae-guesthouse_2/hotel/busan-kr.html"
      },
      {
        "id": "hotel_86273",
        "name_en": "MAMA Guesthouse Haeundae",
        "lat": 35.1605,
        "lng": 129.1645,
        "price_krw": 45000,
        "booking_url": "https://www.agoda.com/ko-kr/mama-guesthouse-haeundae/hotel/busan-kr.html"
      },
      {
        "id": "hotel_91771",
        "name_en": "Paradise Hotel Busan",
        "lat": 35.159,
        "lng": 129.168,
        "price_krw": 280000,
        "booking_url": "https://www.agoda.com/ko-kr/paradise-hotel-busan/hotel/busan-kr.html"
      },
      {
        "id": "hotel_gw001",
        "name_en": "Shilla Stay Gwanghwamun",
        "lat": 37.5712,
        "lng": 126.9769,
        "price_krw": 185000,
        "booking_url": "https://www.agoda.com/shilla-stay-gwanghwamun/hotel/seoul-kr.html"
      },
      {
        "id": "hotel_gw002",
        "name_en": "Four Seasons Hotel Seoul",
        "lat": 37.5725,
        "lng": 126.976,
        "price_krw": 650000,
        "booking_url": "https://www.agoda.com/four-seasons-hotel-seoul/hotel/seoul-kr.html"
      },
      {
        "id": "hotel_gw003",
        "name_en": "Somerset Palace Seoul",
        "lat": 37.5756,
        "lng": 126.985,
        "price_krw": 280000,
        "booking_url": "https://www.agoda.com/somerset-palace-seoul/hotel/seoul-kr.html"
      },
      {
        "id": "hotel_gw004",
        "name_en": "Nine Tree Premier Hotel Insadong",
        "lat": 37.5735,
        "lng": 126.987,
        "price_krw": 165000,
        "booking_url": "https://www.agoda.com/nine-tree-premier-hotel-insadong/hotel/seoul-kr.html"
      },
      {
        "id": "hotel_gw005",
        "name_en": "Sunbee Hotel Insadong Seoul",
        "lat": 37.5728,
        "lng": 126.9865,
        "price_krw": 95000,
        "booking_url": "https://www.agoda.com/sunbee-hotel-insadong-seoul/hotel/seoul-kr.html"
      },
      {
        "id": "hotel_gw006",
        "name_en": "Center Mark Hotel (AMID Hotel Seoul)",
        "lat": 37.5701,
        "lng": 126.9875,
        "price_krw": 145000,
        "booking_url": "https://www.agoda.com/center-mark-hotel/hotel/seoul-kr.html"
      },
      {
        "id": "hotel_gw007",
        "name_en": "Dormy Inn EXPRESS Seoul Insadong",
        "lat": 37.5732,
        "lng": 126.9858,
        "price_krw": 135000,
        "booking_url": "https://www.agoda.com/hotel-kuretakeso-insadong_2/hotel/seoul-kr.html"
      },
      {
        "id": "hotel_gw008",
        "name_en": "Koreana Hotel",
        "lat": 37.5695,
        "lng": 126.978,
        "price_krw": 155000,
        "booking_url": "https://www.agoda.com/koreana-hotel/hotel/seoul-kr.html"
      },
      {
        "id": "hotel_gw009",
        "name_en": "President Hotel",
        "lat": 37.568,
        "lng": 126.9775,
        "price_krw": 145000,
        "booking_url": "https://www.agoda.com/president-hotel/hotel/seoul-kr.html"
      },
      {
        "id": "hotel_gw010",
        "name_en": "Prima Hotel Seoul",
        "lat": 37.5715,
        "lng": 126.9895,
        "price_krw": 125000,
        "booking_url": "https://www.agoda.com/prima-hotel/hotel/seoul-kr.html"
      },
      {
        "id": "hotel_gw011",
        "name_en": "Orakai Insadong Suites",
        "lat": 37.5738,
        "lng": 126.9862,
        "price_krw": 195000,
        "booking_url": "https://www.agoda.com/orakai-insadong-suites/hotel/seoul-kr.html"
      },
      {
        "id": "hotel_gw012",
        "name_en": "GRID INN Hotel",
        "lat": 37.5705,
        "lng": 126.989,
        "price_krw": 85000,
        "booking_url": "https://www.agoda.com/grid-inn/hotel/seoul-kr.html"
      },
      {
        "id": "hotel_gw013",
        "name_en": "ibis Ambassador Seoul Insadong",
        "lat": 37.5742,
        "lng": 126.9855,
        "price_krw": 115000,
        "booking_url": "https://www.agoda.com/ibis-ambassador-seoul-insadong-hotel/hotel/seoul-kr.html"
      },
      {
        "id": "hotel_gw014",
        "name_en": "Nostalgia Hanok Hotel",
        "lat": 37.5785,
        "lng": 126.985,
        "price_krw": 185000,
        "booking_url": "https://www.agoda.com/nostalgia-hanok-hotel-h80950018/hotel/seoul-kr.html"
      },
      {
        "id": "hotel_gw015",
        "name_en": "Hanok Hotel Daam",
        "lat": 37.579,
        "lng": 126.9845,
        "price_krw": 165000,
        "booking_url": "https://www.agoda.com/hotel-daam/hotel/seoul-kr.html"
      },
      {
        "id": "hotel_gw016",
        "name_en": "Nouvelle Hotel and Spa Jongro by Aank",
        "lat": 37.572,
        "lng": 126.9905,
        "price_krw": 95000,
        "booking_url": "https://www.agoda.com/nouvelle-hotel-and-spa-seoul-jongno/hotel/seoul-kr.html"
      },
      {
        "id": "hotel_gw017",
        "name_en": "New Seoul Hotel",
        "lat": 37.5645,
        "lng": 126.9815,
        "price_krw": 125000,
        "booking_url": "https://www.agoda.com/new-seoul-hotel/hotel/seoul-kr.html"
      },
      {
        "id": "hotel_gw018",
        "name_en": "Hotel Midcity Myeongdong",
        "lat": 37.5635,
        "lng": 126.9825,
        "price_krw": 135000,
        "booking_url": "https://www.agoda.com/afirst-hotel-myeongdong-h9472980/hotel/seoul-kr.html"
      },
      {
        "id": "hotel_gw019",
        "name_en": "24 Guesthouse Seoul Jongno",
        "lat": 37.571,
        "lng": 126.99,
        "price_krw": 45000,
        "booking_url": "https://www.agoda.com/24-guesthouse-seoul-jongno/hotel/seoul-kr.html"
      },
      {
        "id": "hotel_gw020",
        "name_en": "G House Guesthouse Jongno",
        "lat": 37.5705,
        "lng": 126.9895,
        "price_krw": 38000,
        "booking_url": "https://www.agoda.com/g-house-guesthouse-jongno/hotel/seoul-kr.html"
      },
      {
        "id": "hotel_gw021",
        "name_en": "Beewon Guest House",
        "lat": 37.5725,
        "lng": 126.9905,
        "price_krw": 42000,
        "booking_url": "https://www.agoda.com/beewon-guest-house/hotel/seoul-kr.html"
      },
      {
        "id": "hotel_gw022",
        "name_en": "Hostel Chloe Jongno",
        "lat": 37.5698,
        "lng": 126.9888,
        "price_krw": 28000,
        "booking_url": "https://www.agoda.com/hostel-chloe-jongno/hotel/seoul-kr.html"
      },
      {
        "id": "hotel_gw023",
        "name_en": "Goodstay Saewha Hostel",
        "lat": 37.5692,
        "lng": 126.988,
        "price_krw": 25000,
        "booking_url": "https://www.agoda.com/goodstay-saewha-hostel/hotel/seoul-kr.html"
      },
      {
        "id": "hotel_gw024",
        "name_en": "Hostel Tommy",
        "lat": 37.5702,
        "lng": 126.9892,
        "price_krw": 22000,
        "booking_url": "https://www.agoda.com/hostel-tommy_2/hotel/seoul-kr.html"
      },
      {
        "id": "hotel_gw025",
        "name_en": "Hostel Korea Original",
        "lat": 37.5708,
        "lng": 126.9898,
        "price_krw": 30000,
        "booking_url": "https://www.agoda.com/hostel-korea-original/hotel/seoul-kr.html"
      },
      {
        "id": "hotel_gw026",
        "name_en": "Insadong Crown Hotel",
        "lat": 37.574,
        "lng": 126.986,
        "price_krw": 105000,
        "booking_url": "https://www.agoda.com/insadong-crown-hotel/hotel/seoul-kr.html"
      },
      {
        "id": "hotel_gw027",
        "name_en": "Hotel Biz Jongno Insadong",
        "lat": 37.573,
        "lng": 126.9875,
        "price_krw": 78000,
        "booking_url": "https://www.agoda.com/hotel-biz-jongno-insadong/hotel/seoul-kr.html"
      }
    ]
  },
  "hotels": [
    {
      "id": "hotel_50905",
      "name_en": "Boutiquehotel K Ilsan",
      "price_krw": 89000,
      "rating": 4.2,
      "image_url": "https://images.unsplash.com/photo-1502672260266-1c1ef2d93688?w=800",
      "rooms_left": 2,
      "is_available": true,
      "hotel_type": {
        "label_en": "Residence",
        "color": "#87CEEB"
      },
      "cancellation": {
        "type": "unknown",
        "label_en": "Check Policy",
        "label_kr": "정책 확인",
        "is_refundable": null
      },
      "tags": {
        "list_en": [
          "#ARMYPopular",
          "#WalkToVenue"
        ],
        "list_kr": [
          "#아미인기",
          "#도보가능"
        ],
        "display_en": "#ARMYPopular #WalkToVenue",
        "display_kr": "#아미인기 #도보가능"
      },
      "lat": 37.6575,
      "lng": 126.7705,
      "location": {
        "area_en": "Goyang",
        "area_kr": "고양",
        "address_en": "Goyang, Gyeonggi-do",
        "address_kr": "경기도 고양"
      },
      "city_key": "goyang",
      "army_density": {
        "value": 68,
        "level_en": "High",
        "level_kr": "높음",
        "label_en": "ARMY 68%",
        "label_kr": "아미 68%"
      },
      "distance": {
        "type": "walk",
        "display_en": "Walk 2min",
        "minutes": 2,
        "distance_km": 0.2
      },
      "transport": {
        "station_en": "Jeongbalsan",
        "line_en": "Line 3",
        "line_color": "#EF7C1C",
        "display_en": "Jeongbalsan (Line 3)"
      },
      "safe_return": {
        "venue_en": "Goyang Stadium",
        "route_en": "Walk from Goyang Stadium → Hotel",
        "transport": "walk",
        "time_min": 2,
        "last_train": "23:50",
        "taxi_krw": 0
      },
      "army_local_guide": {
        "bts": [
          {
            "name_en": "MBC Sangam",
            "spot_tag": "Music Show",
            "description_en": "Music show filming",
            "distance_km": 13.8,
            "lat": 37.5786,
            "lng": 126.8918
          },
          {
            "name_en": "Hongdae Busking Street",
            "spot_tag": "Trainee Memory",
            "description_en": "Pre-debut busking spot",
            "distance_km": 17.5,
            "lat": 37.5563,
            "lng": 126.922
          },
          {
            "name_en": "Gwangjang Market",
            "spot_tag": "Debut Memory",
            "description_en": "2013 debut location",
            "distance_km": 23.2,
            "lat": 37.57,
            "lng": 127.0098
          }
        ],
        "restaurant": [
          {
            "name_en": "La Festa Restaurants",
            "spot_tag": "Dining Hub",
            "description_en": "Restaurant complex",
            "distance_km": 0.0,
            "lat": 37.6575,
            "lng": 126.7705
          },
          {
            "name_en": "Ilsan Food Street",
            "spot_tag": "Local Eats",
            "description_en": "Local food street",
            "distance_km": 0.1,
            "lat": 37.658,
            "lng": 126.772
          },
          {
            "name_en": "Western Dom Food Court",
            "spot_tag": "Food Court",
            "description_en": "Food court",
            "distance_km": 1.0,
            "lat": 37.663,
            "lng": 126.762
          }
        ],
        "cafe": [
          {
            "name_en": "La Festa Cafes",
            "spot_tag": "Trendy Cafe",
            "description_en": "Trendy cafes",
            "distance_km": 0.1,
            "lat": 37.6572,
            "lng": 126.771
          },
          {
            "name_en": "Ilsan Lake Park Cafe Street",
            "spot_tag": "Lake View",
            "description_en": "Scenic cafes",
            "distance_km": 0.9,
            "lat": 37.659,
            "lng": 126.76
          }
        ],
        "hotspot": [
          {
            "name_en": "Ilsan Lake Park",
            "spot_tag": "Must Visit",
            "description_en": "Beautiful lake park",
            "distance_km": 1.0,
            "lat": 37.658,
            "lng": 126.759
          },
          {
            "name_en": "One Mount",
            "spot_tag": "Entertainment",
            "description_en": "Theme park",
            "distance_km": 1.9,
            "lat": 37.665,
            "lng": 126.751
          },
          {
            "name_en": "Starfield Goyang",
            "spot_tag": "Shopping",
            "description_en": "Shopping mall",
            "distance_km": 11.0,
            "lat": 37.645,
            "lng": 126.895
          }
        ]
      },
      "map_detail": {
        "hotel": {
          "name_en": "La Festa Residence",
          "lat": 37.6575,
          "lng": 126.7705
        },
        "venue": {
          "name_en": "Goyang Stadium",
          "lat": 37.6556,
          "lng": 126.7714
        },
        "nearby_spots": [
          {
            "name_en": "La Festa Restaurants",
            "category": "restaurant",
            "spot_tag": "Dining Hub",
            "lat": 37.6575,
            "lng": 126.7705,
            "distance_km": 0.0
          },
          {
            "name_en": "Ilsan Food Street",
            "category": "restaurant",
            "spot_tag": "Local Eats",
            "lat": 37.658,
            "lng": 126.772,
            "distance_km": 0.1
          },
          {
            "name_en": "La Festa Cafes",
            "category": "cafe",
            "spot_tag": "Trendy Cafe",
            "lat": 37.6572,
            "lng": 126.771,
            "distance_km": 0.1
          },
          {
            "name_en": "Ilsan Lake Park Cafe Street",
            "category": "cafe",
            "spot_tag": "Lake View",
            "lat": 37.659,
            "lng": 126.76,
            "distance_km": 0.9
          },
          {
            "name_en": "Western Dom Food Court",
            "category": "restaurant",
            "spot_tag": "Food Court",
            "lat": 37.663,
            "lng": 126.762,
            "distance_km": 1.0
          }
        ]
      },
      "platform": "Agoda",
      "booking_guide": {
        "steps_en": [
          "1. Select dates and search",
          "2. Choose room, click 'Book Now'",
          "3. Enter passport name",
          "4. Pay with credit card or PayPal",
          "5. Get instant confirmation"
        ],
        "tips_en": [
          "Pay at Hotel option available",
          "Check cancellation policy"
        ],
        "payment_methods": [
          "Credit Card",
          "PayPal",
          "Pay at Hotel"
        ],
        "foreigner_friendly": true
      },
      "last_update": "2026-01-30 17:29:28",
      "nearby": [
        {
          "id": "hotel_19685",
          "name_en": "Sono Calm Goyang",
          "price_krw": 135000,
          "distance_km": 0.1,
          "image_url": "https://images.unsplash.com/photo-1551882547-ff40c63fe5fa?w=800"
        },
        {
          "id": "hotel_41495",
          "name_en": "Goyang Airbnb Studio",
          "price_krw": 58000,
          "distance_km": 0.2,
          "image_url": "https://images.unsplash.com/photo-1501183638710-841dd1904471?w=800"
        },
        {
          "id": "hotel_69304",
          "name_en": "Ilsan Hotel M",
          "price_krw": 72000,
          "distance_km": 0.4,
          "image_url": "https://images.unsplash.com/photo-1631049307264-da0ec9d70304?w=800"
        }
      ],
      "booking_url": "https://www.agoda.com/ko-kr/boutiquehotel-k-ilsan/hotel/goyang-si-kr.html",
      "name_ko": "부티크호텔 K 일산"
    },
    {
      "id": "hotel_69304",
      "name_en": "Urban-Est Hotel Goyang",
      "price_krw": 75000,
      "rating": 3.9,
      "image_url": "https://images.unsplash.com/photo-1631049307264-da0ec9d70304?w=800",
      "rooms_left": 10,
      "is_available": true,
      "hotel_type": {
        "label_en": "3-Star Hotel",
        "color": "#CD7F32"
      },
      "cancellation": {
        "type": "partial",
        "label_en": "Partial Refund",
        "label_kr": "부분 환불",
        "is_refundable": true
      },
      "tags": {
        "list_en": [
          "#ARMYPopular",
          "#WalkToVenue"
        ],
        "list_kr": [
          "#아미인기",
          "#도보가능"
        ],
        "display_en": "#ARMYPopular #WalkToVenue",
        "display_kr": "#아미인기 #도보가능"
      },
      "lat": 37.654,
      "lng": 126.773,
      "location": {
        "area_en": "Goyang",
        "area_kr": "고양",
        "address_en": "Goyang, Gyeonggi-do",
        "address_kr": "경기도 고양"
      },
      "city_key": "goyang",
      "army_density": {
        "value": 65,
        "level_en": "High",
        "level_kr": "높음",
        "label_en": "ARMY 65%",
        "label_kr": "아미 65%"
      },
      "distance": {
        "type": "walk",
        "display_en": "Walk 2min",
        "minutes": 2,
        "distance_km": 0.2
      },
      "transport": {
        "station_en": "Jeongbalsan",
        "line_en": "Line 3",
        "line_color": "#EF7C1C",
        "display_en": "Jeongbalsan (Line 3)"
      },
      "safe_return": {
        "venue_en": "Goyang Stadium",
        "route_en": "Walk from Goyang Stadium → Hotel",
        "transport": "walk",
        "time_min": 2,
        "last_train": "23:50",
        "taxi_krw": 0
      },
      "army_local_guide": {
        "bts": [
          {
            "name_en": "MBC Sangam",
            "spot_tag": "Music Show",
            "description_en": "Music show filming",
            "distance_km": 13.4,
            "lat": 37.5786,
            "lng": 126.8918
          },
          {
            "name_en": "Hongdae Busking Street",
            "spot_tag": "Trainee Memory",
            "description_en": "Pre-debut busking spot",
            "distance_km": 17.0,
            "lat": 37.5563,
            "lng": 126.922
          },
          {
            "name_en": "Gwangjang Market",
            "spot_tag": "Debut Memory",
            "description_en": "2013 debut location",
            "distance_km": 22.9,
            "lat": 37.57,
            "lng": 127.0098
          }
        ],
        "restaurant": [
          {
            "name_en": "La Festa Restaurants",
            "spot_tag": "Dining Hub",
            "description_en": "Restaurant complex",
            "distance_km": 0.4,
            "lat": 37.6575,
            "lng": 126.7705
          },
          {
            "name_en": "Ilsan Food Street",
            "spot_tag": "Local Eats",
            "description_en": "Local food street",
            "distance_km": 0.5,
            "lat": 37.658,
            "lng": 126.772
          },
          {
            "name_en": "Western Dom Food Court",
            "spot_tag": "Food Court",
            "description_en": "Food court",
            "distance_km": 1.4,
            "lat": 37.663,
            "lng": 126.762
          }
        ],
        "cafe": [
          {
            "name_en": "La Festa Cafes",
            "spot_tag": "Trendy Cafe",
            "description_en": "Trendy cafes",
            "distance_km": 0.4,
            "lat": 37.6572,
            "lng": 126.771
          },
          {
            "name_en": "Ilsan Lake Park Cafe Street",
            "spot_tag": "Lake View",
            "description_en": "Scenic cafes",
            "distance_km": 1.3,
            "lat": 37.659,
            "lng": 126.76
          }
        ],
        "hotspot": [
          {
            "name_en": "Ilsan Lake Park",
            "spot_tag": "Must Visit",
            "description_en": "Beautiful lake park",
            "distance_km": 1.3,
            "lat": 37.658,
            "lng": 126.759
          },
          {
            "name_en": "One Mount",
            "spot_tag": "Entertainment",
            "description_en": "Theme park",
            "distance_km": 2.3,
            "lat": 37.665,
            "lng": 126.751
          },
          {
            "name_en": "Starfield Goyang",
            "spot_tag": "Shopping",
            "description_en": "Shopping mall",
            "distance_km": 10.8,
            "lat": 37.645,
            "lng": 126.895
          }
        ]
      },
      "map_detail": {
        "hotel": {
          "name_en": "Ilsan Hotel M",
          "lat": 37.654,
          "lng": 126.773
        },
        "venue": {
          "name_en": "Goyang Stadium",
          "lat": 37.6556,
          "lng": 126.7714
        },
        "nearby_spots": [
          {
            "name_en": "La Festa Restaurants",
            "category": "restaurant",
            "spot_tag": "Dining Hub",
            "lat": 37.6575,
            "lng": 126.7705,
            "distance_km": 0.4
          },
          {
            "name_en": "La Festa Cafes",
            "category": "cafe",
            "spot_tag": "Trendy Cafe",
            "lat": 37.6572,
            "lng": 126.771,
            "distance_km": 0.4
          },
          {
            "name_en": "Ilsan Food Street",
            "category": "restaurant",
            "spot_tag": "Local Eats",
            "lat": 37.658,
            "lng": 126.772,
            "distance_km": 0.5
          },
          {
            "name_en": "Ilsan Lake Park Cafe Street",
            "category": "cafe",
            "spot_tag": "Lake View",
            "lat": 37.659,
            "lng": 126.76,
            "distance_km": 1.3
          },
          {
            "name_en": "Ilsan Lake Park",
            "category": "hotspot",
            "spot_tag": "Must Visit",
            "lat": 37.658,
            "lng": 126.759,
            "distance_km": 1.3
          }
        ]
      },
      "platform": "Agoda",
      "booking_guide": {
        "steps_en": [
          "1. Download Yanolja app",
          "2. Search '고양' for hotels",
          "3. Select dates and room",
          "4. Register with phone number",
          "5. Pay with card"
        ],
        "tips_en": [
          "App has English option",
          "Some require Korean phone"
        ],
        "payment_methods": [
          "Credit Card",
          "Korean Pay"
        ],
        "foreigner_friendly": "partial"
      },
      "last_update": "2026-01-30 17:29:28",
      "nearby": [
        {
          "id": "hotel_71135",
          "name_en": "Antives Hotel Ilsan",
          "price_krw": 75000,
          "distance_km": 0.2,
          "image_url": "https://images.unsplash.com/photo-1631049307264-da0ec9d70304?w=800"
        },
        {
          "id": "hotel_50905",
          "name_en": "La Festa Residence",
          "price_krw": 95000,
          "distance_km": 0.4,
          "image_url": "https://images.unsplash.com/photo-1502672260266-1c1ef2d93688?w=800"
        },
        {
          "id": "hotel_41495",
          "name_en": "Goyang Airbnb Studio",
          "price_krw": 58000,
          "distance_km": 0.4,
          "image_url": "https://images.unsplash.com/photo-1501183638710-841dd1904471?w=800"
        }
      ],
      "booking_url": "https://www.agoda.com/ko-kr/h31249339/hotel/goyang-si-kr.html",
      "name_ko": "어반이스트 호텔 고양"
    },
    {
      "id": "hotel_41495",
      "name_en": "Ilsan Kintex Suite Room",
      "price_krw": 65000,
      "rating": 4.4,
      "image_url": "https://images.unsplash.com/photo-1501183638710-841dd1904471?w=800",
      "rooms_left": 1,
      "is_available": true,
      "hotel_type": {
        "label_en": "Airbnb",
        "color": "#FF5A5F"
      },
      "cancellation": {
        "type": "partial",
        "label_en": "Partial Refund",
        "label_kr": "부분 환불",
        "is_refundable": true
      },
      "tags": {
        "list_en": [
          "#ARMYPopular",
          "#WalkToVenue",
          "#LocalLife"
        ],
        "list_kr": [
          "#아미인기",
          "#도보가능",
          "#현지생활"
        ],
        "display_en": "#ARMYPopular #WalkToVenue #LocalLife",
        "display_kr": "#아미인기 #도보가능 #현지생활"
      },
      "lat": 37.656,
      "lng": 126.769,
      "location": {
        "area_en": "Goyang",
        "area_kr": "고양",
        "address_en": "Goyang, Gyeonggi-do",
        "address_kr": "경기도 고양"
      },
      "city_key": "goyang",
      "army_density": {
        "value": 70,
        "level_en": "High",
        "level_kr": "높음",
        "label_en": "ARMY 70%",
        "label_kr": "아미 70%"
      },
      "distance": {
        "type": "walk",
        "display_en": "Walk 2min",
        "minutes": 2,
        "distance_km": 0.2
      },
      "transport": {
        "station_en": "Jeongbalsan",
        "line_en": "Line 3",
        "line_color": "#EF7C1C",
        "display_en": "Jeongbalsan (Line 3)"
      },
      "safe_return": {
        "venue_en": "Goyang Stadium",
        "route_en": "Walk from Goyang Stadium → Hotel",
        "transport": "walk",
        "time_min": 2,
        "last_train": "23:50",
        "taxi_krw": 0
      },
      "army_local_guide": {
        "bts": [
          {
            "name_en": "MBC Sangam",
            "spot_tag": "Music Show",
            "description_en": "Music show filming",
            "distance_km": 13.8,
            "lat": 37.5786,
            "lng": 126.8918
          },
          {
            "name_en": "Hongdae Busking Street",
            "spot_tag": "Trainee Memory",
            "description_en": "Pre-debut busking spot",
            "distance_km": 17.5,
            "lat": 37.5563,
            "lng": 126.922
          },
          {
            "name_en": "Gwangjang Market",
            "spot_tag": "Debut Memory",
            "description_en": "2013 debut location",
            "distance_km": 23.3,
            "lat": 37.57,
            "lng": 127.0098
          }
        ],
        "restaurant": [
          {
            "name_en": "La Festa Restaurants",
            "spot_tag": "Dining Hub",
            "description_en": "Restaurant complex",
            "distance_km": 0.2,
            "lat": 37.6575,
            "lng": 126.7705
          },
          {
            "name_en": "Ilsan Food Street",
            "spot_tag": "Local Eats",
            "description_en": "Local food street",
            "distance_km": 0.3,
            "lat": 37.658,
            "lng": 126.772
          },
          {
            "name_en": "Western Dom Food Court",
            "spot_tag": "Food Court",
            "description_en": "Food court",
            "distance_km": 1.0,
            "lat": 37.663,
            "lng": 126.762
          }
        ],
        "cafe": [
          {
            "name_en": "La Festa Cafes",
            "spot_tag": "Trendy Cafe",
            "description_en": "Trendy cafes",
            "distance_km": 0.2,
            "lat": 37.6572,
            "lng": 126.771
          },
          {
            "name_en": "Ilsan Lake Park Cafe Street",
            "spot_tag": "Lake View",
            "description_en": "Scenic cafes",
            "distance_km": 0.9,
            "lat": 37.659,
            "lng": 126.76
          }
        ],
        "hotspot": [
          {
            "name_en": "Ilsan Lake Park",
            "spot_tag": "Must Visit",
            "description_en": "Beautiful lake park",
            "distance_km": 0.9,
            "lat": 37.658,
            "lng": 126.759
          },
          {
            "name_en": "One Mount",
            "spot_tag": "Entertainment",
            "description_en": "Theme park",
            "distance_km": 1.9,
            "lat": 37.665,
            "lng": 126.751
          },
          {
            "name_en": "Starfield Goyang",
            "spot_tag": "Shopping",
            "description_en": "Shopping mall",
            "distance_km": 11.2,
            "lat": 37.645,
            "lng": 126.895
          }
        ]
      },
      "map_detail": {
        "hotel": {
          "name_en": "Goyang Airbnb Studio",
          "lat": 37.656,
          "lng": 126.769
        },
        "venue": {
          "name_en": "Goyang Stadium",
          "lat": 37.6556,
          "lng": 126.7714
        },
        "nearby_spots": [
          {
            "name_en": "La Festa Restaurants",
            "category": "restaurant",
            "spot_tag": "Dining Hub",
            "lat": 37.6575,
            "lng": 126.7705,
            "distance_km": 0.2
          },
          {
            "name_en": "La Festa Cafes",
            "category": "cafe",
            "spot_tag": "Trendy Cafe",
            "lat": 37.6572,
            "lng": 126.771,
            "distance_km": 0.2
          },
          {
            "name_en": "Ilsan Food Street",
            "category": "restaurant",
            "spot_tag": "Local Eats",
            "lat": 37.658,
            "lng": 126.772,
            "distance_km": 0.3
          },
          {
            "name_en": "Ilsan Lake Park Cafe Street",
            "category": "cafe",
            "spot_tag": "Lake View",
            "lat": 37.659,
            "lng": 126.76,
            "distance_km": 0.9
          },
          {
            "name_en": "Ilsan Lake Park",
            "category": "hotspot",
            "spot_tag": "Must Visit",
            "lat": 37.658,
            "lng": 126.759,
            "distance_km": 0.9
          }
        ]
      },
      "platform": "Agoda",
      "booking_guide": {
        "steps_en": [
          "1. Use GoodChoice app/website",
          "2. Search Goyang area",
          "3. Select room type",
          "4. Enter booking info",
          "5. Pay and confirm"
        ],
        "tips_en": [
          "Limited English",
          "Use Papago translator"
        ],
        "payment_methods": [
          "Credit Card",
          "Korean Pay"
        ],
        "foreigner_friendly": "limited"
      },
      "last_update": "2026-01-30 17:29:28",
      "nearby": [
        {
          "id": "hotel_19685",
          "name_en": "Sono Calm Goyang",
          "price_krw": 135000,
          "distance_km": 0.2,
          "image_url": "https://images.unsplash.com/photo-1551882547-ff40c63fe5fa?w=800"
        },
        {
          "id": "hotel_50905",
          "name_en": "La Festa Residence",
          "price_krw": 95000,
          "distance_km": 0.2,
          "image_url": "https://images.unsplash.com/photo-1502672260266-1c1ef2d93688?w=800"
        },
        {
          "id": "hotel_69304",
          "name_en": "Ilsan Hotel M",
          "price_krw": 72000,
          "distance_km": 0.4,
          "image_url": "https://images.unsplash.com/photo-1631049307264-da0ec9d70304?w=800"
        }
      ],
      "booking_url": "https://www.agoda.com/ko-kr/ilsan-kintex-suite-room/hotel/goyang-si-kr.html",
      "name_ko": "일산 킨텍스 스위트룸"
    },
    {
      "id": "hotel_19685",
      "name_en": "Sono Calm Goyang",
      "price_krw": 165000,
      "rating": 4.3,
      "image_url": "https://images.unsplash.com/photo-1551882547-ff40c63fe5fa?w=800",
      "rooms_left": 3,
      "is_available": true,
      "hotel_type": {
        "label_en": "Resort Hotel",
        "label_kr": "리조트 호텔",
        "color": "#20B2AA"
      },
      "cancellation": {
        "type": "free",
        "label_en": "Free Cancellation",
        "label_kr": "무료 취소",
        "is_refundable": true
      },
      "tags": {
        "list_en": [
          "#FreeCancellation",
          "#WalkToVenue"
        ],
        "list_kr": [
          "#취소가능",
          "#도보가능"
        ],
        "display_en": "#FreeCancellation #WalkToVenue",
        "display_kr": "#취소가능 #도보가능"
      },
      "lat": 37.658,
      "lng": 126.77,
      "location": {
        "area_en": "Goyang",
        "area_kr": "고양",
        "address_en": "20 Taeguk-ro, Ilsanseo-gu, Goyang",
        "address_kr": "고양시 일산서구 태극로 20"
      },
      "city_key": "goyang",
      "army_density": {
        "value": 63,
        "level_en": "Medium",
        "level_kr": "보통",
        "label_en": "ARMY 63%",
        "label_kr": "아미 63%"
      },
      "distance": {
        "type": "walk",
        "display_en": "Walk 3min",
        "minutes": 3,
        "distance_km": 0.3
      },
      "transport": {
        "station_en": "Jeongbalsan",
        "line_en": "Line 3",
        "line_color": "#EF7C1C",
        "display_en": "Jeongbalsan (Line 3)"
      },
      "safe_return": {
        "venue_en": "Goyang Stadium",
        "route_en": "Walk from Goyang Stadium → Hotel",
        "transport": "walk",
        "time_min": 3,
        "last_train": "23:50",
        "taxi_krw": 0
      },
      "army_local_guide": {
        "bts": [
          {
            "name_en": "MBC Sangam",
            "spot_tag": "Music Show",
            "description_en": "Music show filming",
            "distance_km": 13.9,
            "lat": 37.5786,
            "lng": 126.8918
          },
          {
            "name_en": "Hongdae Busking Street",
            "spot_tag": "Trainee Memory",
            "description_en": "Pre-debut busking spot",
            "distance_km": 17.5,
            "lat": 37.5563,
            "lng": 126.922
          },
          {
            "name_en": "Gwangjang Market",
            "spot_tag": "Debut Memory",
            "description_en": "2013 debut location",
            "distance_km": 23.3,
            "lat": 37.57,
            "lng": 127.0098
          }
        ],
        "restaurant": [
          {
            "name_en": "La Festa Restaurants",
            "spot_tag": "Dining Hub",
            "description_en": "Restaurant complex",
            "distance_km": 0.1,
            "lat": 37.6575,
            "lng": 126.7705
          },
          {
            "name_en": "Ilsan Food Street",
            "spot_tag": "Local Eats",
            "description_en": "Local food street",
            "distance_km": 0.2,
            "lat": 37.658,
            "lng": 126.772
          },
          {
            "name_en": "Western Dom Food Court",
            "spot_tag": "Food Court",
            "description_en": "Food court",
            "distance_km": 0.9,
            "lat": 37.663,
            "lng": 126.762
          }
        ],
        "cafe": [
          {
            "name_en": "La Festa Cafes",
            "spot_tag": "Trendy Cafe",
            "description_en": "Trendy cafes",
            "distance_km": 0.1,
            "lat": 37.6572,
            "lng": 126.771
          },
          {
            "name_en": "Ilsan Lake Park Cafe Street",
            "spot_tag": "Lake View",
            "description_en": "Scenic cafes",
            "distance_km": 0.9,
            "lat": 37.659,
            "lng": 126.76
          }
        ],
        "hotspot": [
          {
            "name_en": "Ilsan Lake Park",
            "spot_tag": "Must Visit",
            "description_en": "Beautiful lake park",
            "distance_km": 1.0,
            "lat": 37.658,
            "lng": 126.759
          },
          {
            "name_en": "One Mount",
            "spot_tag": "Entertainment",
            "description_en": "Theme park",
            "distance_km": 1.8,
            "lat": 37.665,
            "lng": 126.751
          },
          {
            "name_en": "Starfield Goyang",
            "spot_tag": "Shopping",
            "description_en": "Shopping mall",
            "distance_km": 11.1,
            "lat": 37.645,
            "lng": 126.895
          }
        ]
      },
      "map_detail": {
        "hotel": {
          "name_en": "Sono Calm Goyang",
          "lat": 37.658,
          "lng": 126.77
        },
        "venue": {
          "name_en": "Goyang Stadium",
          "lat": 37.6556,
          "lng": 126.7714
        },
        "nearby_spots": [
          {
            "name_en": "La Festa Restaurants",
            "category": "restaurant",
            "spot_tag": "Dining Hub",
            "lat": 37.6575,
            "lng": 126.7705,
            "distance_km": 0.1
          },
          {
            "name_en": "La Festa Cafes",
            "category": "cafe",
            "spot_tag": "Trendy Cafe",
            "lat": 37.6572,
            "lng": 126.771,
            "distance_km": 0.1
          },
          {
            "name_en": "Ilsan Food Street",
            "category": "restaurant",
            "spot_tag": "Local Eats",
            "lat": 37.658,
            "lng": 126.772,
            "distance_km": 0.2
          },
          {
            "name_en": "Western Dom Food Court",
            "category": "restaurant",
            "spot_tag": "Food Court",
            "lat": 37.663,
            "lng": 126.762,
            "distance_km": 0.9
          },
          {
            "name_en": "Ilsan Lake Park Cafe Street",
            "category": "cafe",
            "spot_tag": "Lake View",
            "lat": 37.659,
            "lng": 126.76,
            "distance_km": 0.9
          }
        ]
      },
      "platform": {
        "name": "Booking.com",
        "booking_url": "https://www.booking.com/hotel/kr/sono-calm-goyang.html"
      },
      "booking_guide": {
        "steps_en": [
          "1. Search Goyang hotels",
          "2. Filter by 'Free Cancellation'",
          "3. Select room and enter info",
          "4. Pay online or at property",
          "5. Show confirmation at check-in"
        ],
        "tips_en": [
          "Genius membership for discounts",
          "Free cancellation options"
        ],
        "payment_methods": [
          "Credit Card",
          "Pay at Property"
        ],
        "foreigner_friendly": true
      },
      "last_update": "2026-01-30 17:29:28",
      "nearby": [
        {
          "id": "hotel_50905",
          "name_en": "La Festa Residence",
          "price_krw": 95000,
          "distance_km": 0.1,
          "image_url": "https://images.unsplash.com/photo-1502672260266-1c1ef2d93688?w=800"
        },
        {
          "id": "hotel_41495",
          "name_en": "Goyang Airbnb Studio",
          "price_krw": 58000,
          "distance_km": 0.2,
          "image_url": "https://images.unsplash.com/photo-1501183638710-841dd1904471?w=800"
        },
        {
          "id": "hotel_57882",
          "name_en": "Ilsan Lake Park View",
          "price_krw": 85000,
          "distance_km": 0.4,
          "image_url": "https://images.unsplash.com/photo-1502672260266-1c1ef2d93688?w=800"
        }
      ],
      "booking_url": "https://www.agoda.com/ko-kr/the-mvl-hotel-goyang/hotel/goyang-si-kr.html",
      "star_rating": 4,
      "review_count": 450,
      "amenities": [
        "Outdoor Pool",
        "Sauna",
        "Fitness Center",
        "Free WiFi"
      ]
    },
    {
      "id": "hotel_71135",
      "name_en": "Antives Hotel Ilsan",
      "price_krw": 85000,
      "rating": 4.1,
      "image_url": "https://images.unsplash.com/photo-1631049307264-da0ec9d70304?w=800",
      "rooms_left": 8,
      "is_available": true,
      "hotel_type": {
        "label_en": "3-Star Hotel",
        "color": "#CD7F32"
      },
      "cancellation": {
        "type": "free",
        "label_en": "Free Cancellation",
        "label_kr": "무료 취소",
        "is_refundable": true
      },
      "tags": {
        "list_en": [
          "#FreeCancellation",
          "#ARMYPopular",
          "#WalkToVenue"
        ],
        "list_kr": [
          "#취소가능",
          "#아미인기",
          "#도보가능"
        ],
        "display_en": "#FreeCancellation #ARMYPopular #WalkToVenue",
        "display_kr": "#취소가능 #아미인기 #도보가능"
      },
      "lat": 37.6555,
      "lng": 126.775,
      "location": {
        "area_en": "Goyang",
        "area_kr": "고양",
        "address_en": "Goyang, Gyeonggi-do",
        "address_kr": "경기도 고양"
      },
      "city_key": "goyang",
      "army_density": {
        "value": 65,
        "level_en": "High",
        "level_kr": "높음",
        "label_en": "ARMY 65%",
        "label_kr": "아미 65%"
      },
      "distance": {
        "type": "walk",
        "display_en": "Walk 3min",
        "minutes": 3,
        "distance_km": 0.3
      },
      "transport": {
        "station_en": "Jeongbalsan",
        "line_en": "Line 3",
        "line_color": "#EF7C1C",
        "display_en": "Jeongbalsan (Line 3)"
      },
      "safe_return": {
        "venue_en": "Goyang Stadium",
        "route_en": "Walk from Goyang Stadium → Hotel",
        "transport": "walk",
        "time_min": 3,
        "last_train": "23:50",
        "taxi_krw": 0
      },
      "army_local_guide": {
        "bts": [
          {
            "name_en": "MBC Sangam",
            "spot_tag": "Music Show",
            "description_en": "Music show filming",
            "distance_km": 13.4,
            "lat": 37.5786,
            "lng": 126.8918
          },
          {
            "name_en": "Hongdae Busking Street",
            "spot_tag": "Trainee Memory",
            "description_en": "Pre-debut busking spot",
            "distance_km": 17.0,
            "lat": 37.5563,
            "lng": 126.922
          },
          {
            "name_en": "Gwangjang Market",
            "spot_tag": "Debut Memory",
            "description_en": "2013 debut location",
            "distance_km": 22.8,
            "lat": 37.57,
            "lng": 127.0098
          }
        ],
        "restaurant": [
          {
            "name_en": "Ilsan Food Street",
            "spot_tag": "Local Eats",
            "description_en": "Local food street",
            "distance_km": 0.4,
            "lat": 37.658,
            "lng": 126.772
          },
          {
            "name_en": "La Festa Restaurants",
            "spot_tag": "Dining Hub",
            "description_en": "Restaurant complex",
            "distance_km": 0.5,
            "lat": 37.6575,
            "lng": 126.7705
          },
          {
            "name_en": "Western Dom Food Court",
            "spot_tag": "Food Court",
            "description_en": "Food court",
            "distance_km": 1.4,
            "lat": 37.663,
            "lng": 126.762
          }
        ],
        "cafe": [
          {
            "name_en": "La Festa Cafes",
            "spot_tag": "Trendy Cafe",
            "description_en": "Trendy cafes",
            "distance_km": 0.4,
            "lat": 37.6572,
            "lng": 126.771
          },
          {
            "name_en": "Ilsan Lake Park Cafe Street",
            "spot_tag": "Lake View",
            "description_en": "Scenic cafes",
            "distance_km": 1.4,
            "lat": 37.659,
            "lng": 126.76
          }
        ],
        "hotspot": [
          {
            "name_en": "Ilsan Lake Park",
            "spot_tag": "Must Visit",
            "description_en": "Beautiful lake park",
            "distance_km": 1.4,
            "lat": 37.658,
            "lng": 126.759
          },
          {
            "name_en": "One Mount",
            "spot_tag": "Entertainment",
            "description_en": "Theme park",
            "distance_km": 2.4,
            "lat": 37.665,
            "lng": 126.751
          },
          {
            "name_en": "Starfield Goyang",
            "spot_tag": "Shopping",
            "description_en": "Shopping mall",
            "distance_km": 10.6,
            "lat": 37.645,
            "lng": 126.895
          }
        ]
      },
      "map_detail": {
        "hotel": {
          "name_en": "Antives Hotel Ilsan",
          "lat": 37.6555,
          "lng": 126.775
        },
        "venue": {
          "name_en": "Goyang Stadium",
          "lat": 37.6556,
          "lng": 126.7714
        },
        "nearby_spots": [
          {
            "name_en": "Ilsan Food Street",
            "category": "restaurant",
            "spot_tag": "Local Eats",
            "lat": 37.658,
            "lng": 126.772,
            "distance_km": 0.4
          },
          {
            "name_en": "La Festa Cafes",
            "category": "cafe",
            "spot_tag": "Trendy Cafe",
            "lat": 37.6572,
            "lng": 126.771,
            "distance_km": 0.4
          },
          {
            "name_en": "La Festa Restaurants",
            "category": "restaurant",
            "spot_tag": "Dining Hub",
            "lat": 37.6575,
            "lng": 126.7705,
            "distance_km": 0.5
          },
          {
            "name_en": "Western Dom Food Court",
            "category": "restaurant",
            "spot_tag": "Food Court",
            "lat": 37.663,
            "lng": 126.762,
            "distance_km": 1.4
          },
          {
            "name_en": "Ilsan Lake Park Cafe Street",
            "category": "cafe",
            "spot_tag": "Lake View",
            "lat": 37.659,
            "lng": 126.76,
            "distance_km": 1.4
          }
        ]
      },
      "platform": "Agoda",
      "booking_guide": {
        "steps_en": [
          "1. Select dates and search",
          "2. Choose room, click 'Book Now'",
          "3. Enter passport name",
          "4. Pay with credit card or PayPal",
          "5. Get instant confirmation"
        ],
        "tips_en": [
          "Pay at Hotel option available",
          "Check cancellation policy"
        ],
        "payment_methods": [
          "Credit Card",
          "PayPal",
          "Pay at Hotel"
        ],
        "foreigner_friendly": true
      },
      "last_update": "2026-01-30 17:29:28",
      "nearby": [
        {
          "id": "hotel_69304",
          "name_en": "Ilsan Hotel M",
          "price_krw": 72000,
          "distance_km": 0.2,
          "image_url": "https://images.unsplash.com/photo-1631049307264-da0ec9d70304?w=800"
        },
        {
          "id": "hotel_19685",
          "name_en": "Sono Calm Goyang",
          "price_krw": 135000,
          "distance_km": 0.5,
          "image_url": "https://images.unsplash.com/photo-1551882547-ff40c63fe5fa?w=800"
        },
        {
          "id": "hotel_50905",
          "name_en": "La Festa Residence",
          "price_krw": 95000,
          "distance_km": 0.5,
          "image_url": "https://images.unsplash.com/photo-1502672260266-1c1ef2d93688?w=800"
        }
      ],
      "booking_url": "https://www.agoda.com/ko-kr/antives-hotel-ilsan/hotel/goyang-si-kr.html",
      "name_ko": "앙띠브 호텔 일산"
    },
    {
      "id": "hotel_72852",
      "name_en": "Goyang Yuji Hotel",
      "price_krw": 55000,
      "rating": 3.8,
      "image_url": "https://images.unsplash.com/photo-1611892440504-42a792e24d32?w=800",
      "rooms_left": 12,
      "is_available": true,
      "hotel_type": {
        "label_en": "Budget Hotel",
        "color": "#8B4513"
      },
      "cancellation": {
        "type": "free",
        "label_en": "Free Cancellation",
        "label_kr": "무료 취소",
        "is_refundable": true
      },
      "tags": {
        "list_en": [
          "#FreeCancellation",
          "#ARMYPopular",
          "#WalkToVenue"
        ],
        "list_kr": [
          "#취소가능",
          "#아미인기",
          "#도보가능"
        ],
        "display_en": "#FreeCancellation #ARMYPopular #WalkToVenue",
        "display_kr": "#취소가능 #아미인기 #도보가능"
      },
      "lat": 37.652,
      "lng": 126.768,
      "location": {
        "area_en": "Goyang",
        "area_kr": "고양",
        "address_en": "Goyang, Gyeonggi-do",
        "address_kr": "경기도 고양"
      },
      "city_key": "goyang",
      "army_density": {
        "value": 65,
        "level_en": "High",
        "level_kr": "높음",
        "label_en": "ARMY 65%",
        "label_kr": "아미 65%"
      },
      "distance": {
        "type": "walk",
        "display_en": "Walk 5min",
        "minutes": 5,
        "distance_km": 0.5
      },
      "transport": {
        "station_en": "Jeongbalsan",
        "line_en": "Line 3",
        "line_color": "#EF7C1C",
        "display_en": "Jeongbalsan (Line 3)"
      },
      "safe_return": {
        "venue_en": "Goyang Stadium",
        "route_en": "Walk from Goyang Stadium → Hotel",
        "transport": "walk",
        "time_min": 5,
        "last_train": "23:50",
        "taxi_krw": 0
      },
      "army_local_guide": {
        "bts": [
          {
            "name_en": "MBC Sangam",
            "spot_tag": "Music Show",
            "description_en": "Music show filming",
            "distance_km": 13.6,
            "lat": 37.5786,
            "lng": 126.8918
          },
          {
            "name_en": "Hongdae Busking Street",
            "spot_tag": "Trainee Memory",
            "description_en": "Pre-debut busking spot",
            "distance_km": 17.2,
            "lat": 37.5563,
            "lng": 126.922
          },
          {
            "name_en": "Gwangjang Market",
            "spot_tag": "Debut Memory",
            "description_en": "2013 debut location",
            "distance_km": 23.2,
            "lat": 37.57,
            "lng": 127.0098
          }
        ],
        "restaurant": [
          {
            "name_en": "La Festa Restaurants",
            "spot_tag": "Dining Hub",
            "description_en": "Restaurant complex",
            "distance_km": 0.6,
            "lat": 37.6575,
            "lng": 126.7705
          },
          {
            "name_en": "Ilsan Food Street",
            "spot_tag": "Local Eats",
            "description_en": "Local food street",
            "distance_km": 0.8,
            "lat": 37.658,
            "lng": 126.772
          },
          {
            "name_en": "Western Dom Food Court",
            "spot_tag": "Food Court",
            "description_en": "Food court",
            "distance_km": 1.3,
            "lat": 37.663,
            "lng": 126.762
          }
        ],
        "cafe": [
          {
            "name_en": "La Festa Cafes",
            "spot_tag": "Trendy Cafe",
            "description_en": "Trendy cafes",
            "distance_km": 0.6,
            "lat": 37.6572,
            "lng": 126.771
          },
          {
            "name_en": "Ilsan Lake Park Cafe Street",
            "spot_tag": "Lake View",
            "description_en": "Scenic cafes",
            "distance_km": 1.0,
            "lat": 37.659,
            "lng": 126.76
          }
        ],
        "hotspot": [
          {
            "name_en": "Ilsan Lake Park",
            "spot_tag": "Must Visit",
            "description_en": "Beautiful lake park",
            "distance_km": 1.0,
            "lat": 37.658,
            "lng": 126.759
          },
          {
            "name_en": "One Mount",
            "spot_tag": "Entertainment",
            "description_en": "Theme park",
            "distance_km": 2.1,
            "lat": 37.665,
            "lng": 126.751
          },
          {
            "name_en": "Starfield Goyang",
            "spot_tag": "Shopping",
            "description_en": "Shopping mall",
            "distance_km": 11.2,
            "lat": 37.645,
            "lng": 126.895
          }
        ]
      },
      "map_detail": {
        "hotel": {
          "name_en": "Yellow 8 Hotel Goyang",
          "lat": 37.652,
          "lng": 126.768
        },
        "venue": {
          "name_en": "Goyang Stadium",
          "lat": 37.6556,
          "lng": 126.7714
        },
        "nearby_spots": [
          {
            "name_en": "La Festa Restaurants",
            "category": "restaurant",
            "spot_tag": "Dining Hub",
            "lat": 37.6575,
            "lng": 126.7705,
            "distance_km": 0.6
          },
          {
            "name_en": "La Festa Cafes",
            "category": "cafe",
            "spot_tag": "Trendy Cafe",
            "lat": 37.6572,
            "lng": 126.771,
            "distance_km": 0.6
          },
          {
            "name_en": "Ilsan Food Street",
            "category": "restaurant",
            "spot_tag": "Local Eats",
            "lat": 37.658,
            "lng": 126.772,
            "distance_km": 0.8
          },
          {
            "name_en": "Ilsan Lake Park Cafe Street",
            "category": "cafe",
            "spot_tag": "Lake View",
            "lat": 37.659,
            "lng": 126.76,
            "distance_km": 1.0
          },
          {
            "name_en": "Ilsan Lake Park",
            "category": "hotspot",
            "spot_tag": "Must Visit",
            "lat": 37.658,
            "lng": 126.759,
            "distance_km": 1.0
          }
        ]
      },
      "platform": "Agoda",
      "booking_guide": {
        "steps_en": [
          "1. Search 'Goyang, South Korea'",
          "2. Filter by price/rating",
          "3. Select hotel and room",
          "4. Enter guest details",
          "5. Collect stamps for free nights"
        ],
        "tips_en": [
          "10 stamps = 1 free night",
          "Secret prices on app"
        ],
        "payment_methods": [
          "Credit Card",
          "PayPal"
        ],
        "foreigner_friendly": true
      },
      "last_update": "2026-01-30 17:29:28",
      "nearby": [
        {
          "id": "hotel_69304",
          "name_en": "Ilsan Hotel M",
          "price_krw": 72000,
          "distance_km": 0.5,
          "image_url": "https://images.unsplash.com/photo-1631049307264-da0ec9d70304?w=800"
        },
        {
          "id": "hotel_41495",
          "name_en": "Goyang Airbnb Studio",
          "price_krw": 58000,
          "distance_km": 0.5,
          "image_url": "https://images.unsplash.com/photo-1501183638710-841dd1904471?w=800"
        },
        {
          "id": "hotel_50905",
          "name_en": "La Festa Residence",
          "price_krw": 95000,
          "distance_km": 0.6,
          "image_url": "https://images.unsplash.com/photo-1502672260266-1c1ef2d93688?w=800"
        }
      ],
      "booking_url": "https://www.agoda.com/ko-kr/goyang-yuji-hotel/hotel/goyang-si-kr.html",
      "name_ko": "고양 유지 호텔"
    },
    {
      "id": "hotel_57882",
      "name_en": "Hotel Cleo Ilsan",
      "price_krw": 79000,
      "rating": 4.5,
      "image_url": "https://images.unsplash.com/photo-1502672260266-1c1ef2d93688?w=800",
      "rooms_left": 1,
      "is_available": true,
      "hotel_type": {
        "label_en": "Airbnb",
        "color": "#FF5A5F"
      },
      "cancellation": {
        "type": "free",
        "label_en": "Free Cancellation",
        "label_kr": "무료 취소",
        "is_refundable": true
      },
      "tags": {
        "list_en": [
          "#FreeCancellation",
          "#ARMYPopular",
          "#WalkToVenue",
          "#LocalLife"
        ],
        "list_kr": [
          "#취소가능",
          "#아미인기",
          "#도보가능",
          "#현지생활"
        ],
        "display_en": "#FreeCancellation #ARMYPopular #WalkToVenue",
        "display_kr": "#취소가능 #아미인기 #도보가능"
      },
      "lat": 37.6585,
      "lng": 126.765,
      "location": {
        "area_en": "Goyang",
        "area_kr": "고양",
        "address_en": "Goyang, Gyeonggi-do",
        "address_kr": "경기도 고양"
      },
      "city_key": "goyang",
      "army_density": {
        "value": 70,
        "level_en": "High",
        "level_kr": "높음",
        "label_en": "ARMY 70%",
        "label_kr": "아미 70%"
      },
      "distance": {
        "type": "walk",
        "display_en": "Walk 7min",
        "minutes": 7,
        "distance_km": 0.6
      },
      "transport": {
        "station_en": "Jeongbalsan",
        "line_en": "Line 3",
        "line_color": "#EF7C1C",
        "display_en": "Jeongbalsan (Line 3)"
      },
      "safe_return": {
        "venue_en": "Goyang Stadium",
        "route_en": "Walk from Goyang Stadium → Hotel",
        "transport": "walk",
        "time_min": 7,
        "last_train": "23:50",
        "taxi_krw": 0
      },
      "army_local_guide": {
        "bts": [
          {
            "name_en": "MBC Sangam",
            "spot_tag": "Music Show",
            "description_en": "Music show filming",
            "distance_km": 14.3,
            "lat": 37.5786,
            "lng": 126.8918
          },
          {
            "name_en": "Hongdae Busking Street",
            "spot_tag": "Trainee Memory",
            "description_en": "Pre-debut busking spot",
            "distance_km": 17.9,
            "lat": 37.5563,
            "lng": 126.922
          },
          {
            "name_en": "Gwangjang Market",
            "spot_tag": "Debut Memory",
            "description_en": "2013 debut location",
            "distance_km": 23.7,
            "lat": 37.57,
            "lng": 127.0098
          }
        ],
        "restaurant": [
          {
            "name_en": "La Festa Restaurants",
            "spot_tag": "Dining Hub",
            "description_en": "Restaurant complex",
            "distance_km": 0.5,
            "lat": 37.6575,
            "lng": 126.7705
          },
          {
            "name_en": "Ilsan Food Street",
            "spot_tag": "Local Eats",
            "description_en": "Local food street",
            "distance_km": 0.6,
            "lat": 37.658,
            "lng": 126.772
          },
          {
            "name_en": "Western Dom Food Court",
            "spot_tag": "Food Court",
            "description_en": "Food court",
            "distance_km": 0.6,
            "lat": 37.663,
            "lng": 126.762
          }
        ],
        "cafe": [
          {
            "name_en": "Ilsan Lake Park Cafe Street",
            "spot_tag": "Lake View",
            "description_en": "Scenic cafes",
            "distance_km": 0.4,
            "lat": 37.659,
            "lng": 126.76
          },
          {
            "name_en": "La Festa Cafes",
            "spot_tag": "Trendy Cafe",
            "description_en": "Trendy cafes",
            "distance_km": 0.5,
            "lat": 37.6572,
            "lng": 126.771
          }
        ],
        "hotspot": [
          {
            "name_en": "Ilsan Lake Park",
            "spot_tag": "Must Visit",
            "description_en": "Beautiful lake park",
            "distance_km": 0.5,
            "lat": 37.658,
            "lng": 126.759
          },
          {
            "name_en": "One Mount",
            "spot_tag": "Entertainment",
            "description_en": "Theme park",
            "distance_km": 1.4,
            "lat": 37.665,
            "lng": 126.751
          },
          {
            "name_en": "Starfield Goyang",
            "spot_tag": "Shopping",
            "description_en": "Shopping mall",
            "distance_km": 11.5,
            "lat": 37.645,
            "lng": 126.895
          }
        ]
      },
      "map_detail": {
        "hotel": {
          "name_en": "Ilsan Lake Park View",
          "lat": 37.6585,
          "lng": 126.765
        },
        "venue": {
          "name_en": "Goyang Stadium",
          "lat": 37.6556,
          "lng": 126.7714
        },
        "nearby_spots": [
          {
            "name_en": "Ilsan Lake Park Cafe Street",
            "category": "cafe",
            "spot_tag": "Lake View",
            "lat": 37.659,
            "lng": 126.76,
            "distance_km": 0.4
          },
          {
            "name_en": "La Festa Restaurants",
            "category": "restaurant",
            "spot_tag": "Dining Hub",
            "lat": 37.6575,
            "lng": 126.7705,
            "distance_km": 0.5
          },
          {
            "name_en": "La Festa Cafes",
            "category": "cafe",
            "spot_tag": "Trendy Cafe",
            "lat": 37.6572,
            "lng": 126.771,
            "distance_km": 0.5
          },
          {
            "name_en": "Ilsan Lake Park",
            "category": "hotspot",
            "spot_tag": "Must Visit",
            "lat": 37.658,
            "lng": 126.759,
            "distance_km": 0.5
          },
          {
            "name_en": "Ilsan Food Street",
            "category": "restaurant",
            "spot_tag": "Local Eats",
            "lat": 37.658,
            "lng": 126.772,
            "distance_km": 0.6
          }
        ]
      },
      "platform": "Agoda",
      "booking_guide": {
        "steps_en": [
          "1. Select dates and search",
          "2. Choose room, click 'Book Now'",
          "3. Enter passport name",
          "4. Pay with credit card or PayPal",
          "5. Get instant confirmation"
        ],
        "tips_en": [
          "Pay at Hotel option available",
          "Check cancellation policy"
        ],
        "payment_methods": [
          "Credit Card",
          "PayPal",
          "Pay at Hotel"
        ],
        "foreigner_friendly": true
      },
      "last_update": "2026-01-30 17:29:28",
      "nearby": [
        {
          "id": "hotel_19685",
          "name_en": "Sono Calm Goyang",
          "price_krw": 135000,
          "distance_km": 0.4,
          "image_url": "https://images.unsplash.com/photo-1551882547-ff40c63fe5fa?w=800"
        },
        {
          "id": "hotel_41495",
          "name_en": "Goyang Airbnb Studio",
          "price_krw": 58000,
          "distance_km": 0.4,
          "image_url": "https://images.unsplash.com/photo-1501183638710-841dd1904471?w=800"
        },
        {
          "id": "hotel_50905",
          "name_en": "La Festa Residence",
          "price_krw": 95000,
          "distance_km": 0.5,
          "image_url": "https://images.unsplash.com/photo-1502672260266-1c1ef2d93688?w=800"
        }
      ],
      "booking_url": "https://www.agoda.com/cleopatra-hotel/hotel/goyang-si-kr.html",
      "name_ko": "호텔 클레오 일산"
    },
    {
      "id": "hotel_48482",
      "name_en": "Gloucester Hotel Kintex",
      "price_krw": 125000,
      "rating": 4.1,
      "image_url": "https://images.unsplash.com/photo-1566073771259-6a8506099945?w=800",
      "rooms_left": 0,
      "is_available": false,
      "hotel_type": {
        "label_en": "4-Star Hotel",
        "color": "#C0C0C0"
      },
      "cancellation": {
        "type": "unknown",
        "label_en": "Check Policy",
        "label_kr": "정책 확인",
        "is_refundable": null
      },
      "tags": {
        "list_en": [
          "#NearVenue"
        ],
        "list_kr": [
          "#공연장근처"
        ],
        "display_en": "#NearVenue",
        "display_kr": "#공연장근처"
      },
      "lat": 37.662,
      "lng": 126.76,
      "location": {
        "area_en": "Goyang",
        "area_kr": "고양",
        "address_en": "Goyang, Gyeonggi-do",
        "address_kr": "경기도 고양"
      },
      "city_key": "goyang",
      "army_density": {
        "value": 58,
        "level_en": "Medium",
        "level_kr": "보통",
        "label_en": "ARMY 58%",
        "label_kr": "아미 58%"
      },
      "distance": {
        "type": "walk",
        "display_en": "Walk 14min",
        "minutes": 14,
        "distance_km": 1.2
      },
      "transport": {
        "station_en": "Jeongbalsan",
        "line_en": "Line 3",
        "line_color": "#EF7C1C",
        "display_en": "Jeongbalsan (Line 3)"
      },
      "safe_return": {
        "venue_en": "Goyang Stadium",
        "route_en": "Walk from Goyang Stadium → Hotel",
        "transport": "walk",
        "time_min": 14,
        "last_train": "23:50",
        "taxi_krw": 0
      },
      "army_local_guide": {
        "bts": [
          {
            "name_en": "MBC Sangam",
            "spot_tag": "Music Show",
            "description_en": "Music show filming",
            "distance_km": 14.9,
            "lat": 37.5786,
            "lng": 126.8918
          },
          {
            "name_en": "Hongdae Busking Street",
            "spot_tag": "Trainee Memory",
            "description_en": "Pre-debut busking spot",
            "distance_km": 18.5,
            "lat": 37.5563,
            "lng": 126.922
          },
          {
            "name_en": "Gwangjang Market",
            "spot_tag": "Debut Memory",
            "description_en": "2013 debut location",
            "distance_km": 24.3,
            "lat": 37.57,
            "lng": 127.0098
          }
        ],
        "restaurant": [
          {
            "name_en": "Western Dom Food Court",
            "spot_tag": "Food Court",
            "description_en": "Food court",
            "distance_km": 0.2,
            "lat": 37.663,
            "lng": 126.762
          },
          {
            "name_en": "Ilsan Food Street",
            "spot_tag": "Local Eats",
            "description_en": "Local food street",
            "distance_km": 1.1,
            "lat": 37.658,
            "lng": 126.772
          },
          {
            "name_en": "La Festa Restaurants",
            "spot_tag": "Dining Hub",
            "description_en": "Restaurant complex",
            "distance_km": 1.1,
            "lat": 37.6575,
            "lng": 126.7705
          }
        ],
        "cafe": [
          {
            "name_en": "Ilsan Lake Park Cafe Street",
            "spot_tag": "Lake View",
            "description_en": "Scenic cafes",
            "distance_km": 0.3,
            "lat": 37.659,
            "lng": 126.76
          },
          {
            "name_en": "La Festa Cafes",
            "spot_tag": "Trendy Cafe",
            "description_en": "Trendy cafes",
            "distance_km": 1.1,
            "lat": 37.6572,
            "lng": 126.771
          }
        ],
        "hotspot": [
          {
            "name_en": "Ilsan Lake Park",
            "spot_tag": "Must Visit",
            "description_en": "Beautiful lake park",
            "distance_km": 0.5,
            "lat": 37.658,
            "lng": 126.759
          },
          {
            "name_en": "One Mount",
            "spot_tag": "Entertainment",
            "description_en": "Theme park",
            "distance_km": 0.9,
            "lat": 37.665,
            "lng": 126.751
          },
          {
            "name_en": "Starfield Goyang",
            "spot_tag": "Shopping",
            "description_en": "Shopping mall",
            "distance_km": 12.0,
            "lat": 37.645,
            "lng": 126.895
          }
        ]
      },
      "map_detail": {
        "hotel": {
          "name_en": "Ramada Encore Goyang",
          "lat": 37.662,
          "lng": 126.76
        },
        "venue": {
          "name_en": "Goyang Stadium",
          "lat": 37.6556,
          "lng": 126.7714
        },
        "nearby_spots": [
          {
            "name_en": "Western Dom Food Court",
            "category": "restaurant",
            "spot_tag": "Food Court",
            "lat": 37.663,
            "lng": 126.762,
            "distance_km": 0.2
          },
          {
            "name_en": "Ilsan Lake Park Cafe Street",
            "category": "cafe",
            "spot_tag": "Lake View",
            "lat": 37.659,
            "lng": 126.76,
            "distance_km": 0.3
          },
          {
            "name_en": "Ilsan Lake Park",
            "category": "hotspot",
            "spot_tag": "Must Visit",
            "lat": 37.658,
            "lng": 126.759,
            "distance_km": 0.5
          },
          {
            "name_en": "One Mount",
            "category": "hotspot",
            "spot_tag": "Entertainment",
            "lat": 37.665,
            "lng": 126.751,
            "distance_km": 0.9
          },
          {
            "name_en": "Ilsan Food Street",
            "category": "restaurant",
            "spot_tag": "Local Eats",
            "lat": 37.658,
            "lng": 126.772,
            "distance_km": 1.1
          }
        ]
      },
      "platform": "Agoda",
      "booking_guide": {
        "steps_en": [
          "1. Select dates and search",
          "2. Choose room, click 'Book Now'",
          "3. Enter passport name",
          "4. Pay with credit card or PayPal",
          "5. Get instant confirmation"
        ],
        "tips_en": [
          "Pay at Hotel option available",
          "Check cancellation policy"
        ],
        "payment_methods": [
          "Credit Card",
          "PayPal",
          "Pay at Hotel"
        ],
        "foreigner_friendly": true
      },
      "last_update": "2026-01-30 17:29:28",
      "nearby": [
        {
          "id": "hotel_57882",
          "name_en": "Ilsan Lake Park View",
          "price_krw": 85000,
          "distance_km": 0.6,
          "image_url": "https://images.unsplash.com/photo-1502672260266-1c1ef2d93688?w=800"
        },
        {
          "id": "hotel_22827",
          "name_en": "Best Western Premier Guro",
          "price_krw": 125000,
          "distance_km": 0.8,
          "image_url": "https://images.unsplash.com/photo-1551882547-ff40c63fe5fa?w=800"
        },
        {
          "id": "hotel_19685",
          "name_en": "Sono Calm Goyang",
          "price_krw": 135000,
          "distance_km": 1.0,
          "image_url": "https://images.unsplash.com/photo-1551882547-ff40c63fe5fa?w=800"
        }
      ],
      "booking_url": "https://www.agoda.com/ko-kr/kintex-by-k-tree/hotel/goyang-si-kr.html",
      "name_ko": "글로스터호텔 킨텍스"
    },
    {
      "id": "hotel_22827",
      "name_en": "The MVL Hotel Goyang",
      "price_krw": 155000,
      "rating": 4.2,
      "image_url": "https://images.unsplash.com/photo-1551882547-ff40c63fe5fa?w=800",
      "rooms_left": 7,
      "is_available": true,
      "hotel_type": {
        "label_en": "4-Star Hotel",
        "color": "#C0C0C0"
      },
      "cancellation": {
        "type": "free",
        "label_en": "Free Cancellation",
        "label_kr": "무료 취소",
        "is_refundable": true
      },
      "tags": {
        "list_en": [
          "#FreeCancellation",
          "#NearVenue"
        ],
        "list_kr": [
          "#취소가능",
          "#공연장근처"
        ],
        "display_en": "#FreeCancellation #NearVenue",
        "display_kr": "#취소가능 #공연장근처"
      },
      "lat": 37.665,
      "lng": 126.752,
      "location": {
        "area_en": "Goyang",
        "area_kr": "고양",
        "address_en": "Goyang, Gyeonggi-do",
        "address_kr": "경기도 고양"
      },
      "city_key": "goyang",
      "army_density": {
        "value": 58,
        "level_en": "Medium",
        "level_kr": "보통",
        "label_en": "ARMY 58%",
        "label_kr": "아미 58%"
      },
      "distance": {
        "type": "walk",
        "display_en": "Walk 24min",
        "minutes": 24,
        "distance_km": 2.0
      },
      "transport": {
        "station_en": "Jeongbalsan",
        "line_en": "Line 3",
        "line_color": "#EF7C1C",
        "display_en": "Jeongbalsan (Line 3)"
      },
      "safe_return": {
        "venue_en": "Goyang Stadium",
        "route_en": "Walk from Goyang Stadium → Hotel",
        "transport": "walk",
        "time_min": 24,
        "last_train": "23:50",
        "taxi_krw": 0
      },
      "army_local_guide": {
        "bts": [
          {
            "name_en": "MBC Sangam",
            "spot_tag": "Music Show",
            "description_en": "Music show filming",
            "distance_km": 15.6,
            "lat": 37.5786,
            "lng": 126.8918
          },
          {
            "name_en": "Hongdae Busking Street",
            "spot_tag": "Trainee Memory",
            "description_en": "Pre-debut busking spot",
            "distance_km": 19.2,
            "lat": 37.5563,
            "lng": 126.922
          },
          {
            "name_en": "Gwangjang Market",
            "spot_tag": "Debut Memory",
            "description_en": "2013 debut location",
            "distance_km": 25.0,
            "lat": 37.57,
            "lng": 127.0098
          }
        ],
        "restaurant": [
          {
            "name_en": "Western Dom Food Court",
            "spot_tag": "Food Court",
            "description_en": "Food court",
            "distance_km": 0.9,
            "lat": 37.663,
            "lng": 126.762
          },
          {
            "name_en": "La Festa Restaurants",
            "spot_tag": "Dining Hub",
            "description_en": "Restaurant complex",
            "distance_km": 1.8,
            "lat": 37.6575,
            "lng": 126.7705
          },
          {
            "name_en": "Ilsan Food Street",
            "spot_tag": "Local Eats",
            "description_en": "Local food street",
            "distance_km": 1.9,
            "lat": 37.658,
            "lng": 126.772
          }
        ],
        "cafe": [
          {
            "name_en": "Ilsan Lake Park Cafe Street",
            "spot_tag": "Lake View",
            "description_en": "Scenic cafes",
            "distance_km": 1.0,
            "lat": 37.659,
            "lng": 126.76
          },
          {
            "name_en": "La Festa Cafes",
            "spot_tag": "Trendy Cafe",
            "description_en": "Trendy cafes",
            "distance_km": 1.9,
            "lat": 37.6572,
            "lng": 126.771
          }
        ],
        "hotspot": [
          {
            "name_en": "One Mount",
            "spot_tag": "Entertainment",
            "description_en": "Theme park",
            "distance_km": 0.1,
            "lat": 37.665,
            "lng": 126.751
          },
          {
            "name_en": "Ilsan Lake Park",
            "spot_tag": "Must Visit",
            "description_en": "Beautiful lake park",
            "distance_km": 1.0,
            "lat": 37.658,
            "lng": 126.759
          },
          {
            "name_en": "Starfield Goyang",
            "spot_tag": "Shopping",
            "description_en": "Shopping mall",
            "distance_km": 12.8,
            "lat": 37.645,
            "lng": 126.895
          }
        ]
      },
      "map_detail": {
        "hotel": {
          "name_en": "Best Western Premier Guro",
          "lat": 37.665,
          "lng": 126.752
        },
        "venue": {
          "name_en": "Goyang Stadium",
          "lat": 37.6556,
          "lng": 126.7714
        },
        "nearby_spots": [
          {
            "name_en": "One Mount",
            "category": "hotspot",
            "spot_tag": "Entertainment",
            "lat": 37.665,
            "lng": 126.751,
            "distance_km": 0.1
          },
          {
            "name_en": "Western Dom Food Court",
            "category": "restaurant",
            "spot_tag": "Food Court",
            "lat": 37.663,
            "lng": 126.762,
            "distance_km": 0.9
          },
          {
            "name_en": "Ilsan Lake Park Cafe Street",
            "category": "cafe",
            "spot_tag": "Lake View",
            "lat": 37.659,
            "lng": 126.76,
            "distance_km": 1.0
          },
          {
            "name_en": "Ilsan Lake Park",
            "category": "hotspot",
            "spot_tag": "Must Visit",
            "lat": 37.658,
            "lng": 126.759,
            "distance_km": 1.0
          },
          {
            "name_en": "La Festa Restaurants",
            "category": "restaurant",
            "spot_tag": "Dining Hub",
            "lat": 37.6575,
            "lng": 126.7705,
            "distance_km": 1.8
          }
        ]
      },
      "platform": "Agoda",
      "booking_guide": {
        "steps_en": [
          "1. Search Goyang hotels",
          "2. Filter by 'Free Cancellation'",
          "3. Select room and enter info",
          "4. Pay online or at property",
          "5. Show confirmation at check-in"
        ],
        "tips_en": [
          "Genius membership for discounts",
          "Free cancellation options"
        ],
        "payment_methods": [
          "Credit Card",
          "Pay at Property"
        ],
        "foreigner_friendly": true
      },
      "last_update": "2026-01-30 17:29:28",
      "nearby": [
        {
          "id": "hotel_19004",
          "name_en": "Kintex by K-Tree",
          "price_krw": 89000,
          "distance_km": 0.7,
          "image_url": "https://images.unsplash.com/photo-1566073771259-6a8506099945?w=800"
        },
        {
          "id": "hotel_55221",
          "name_en": "Hotel Claum Ilsan",
          "price_krw": 68000,
          "distance_km": 0.8,
          "image_url": "https://images.unsplash.com/photo-1590490360182-c33d57733427?w=800"
        },
        {
          "id": "hotel_48482",
          "name_en": "Ramada Encore Goyang",
          "price_krw": 115000,
          "distance_km": 0.8,
          "image_url": "https://images.unsplash.com/photo-1566073771259-6a8506099945?w=800"
        }
      ],
      "booking_url": "https://www.agoda.com/ko-kr/the-mvl-hotel-goyang/hotel/goyang-si-kr.html",
      "name_ko": "MVL 호텔 고양"
    },
    {
      "id": "hotel_55221",
      "name_en": "The MVL Hotel Kintex",
      "price_krw": 145000,
      "rating": 4.0,
      "image_url": "https://images.unsplash.com/photo-1590490360182-c33d57733427?w=800",
      "rooms_left": 6,
      "is_available": true,
      "hotel_type": {
        "label_en": "3-Star Hotel",
        "color": "#CD7F32"
      },
      "cancellation": {
        "type": "unknown",
        "label_en": "Check Policy",
        "label_kr": "정책 확인",
        "is_refundable": null
      },
      "tags": {
        "list_en": [
          "#NearVenue"
        ],
        "list_kr": [
          "#공연장근처"
        ],
        "display_en": "#NearVenue",
        "display_kr": "#공연장근처"
      },
      "lat": 37.6715,
      "lng": 126.7495,
      "location": {
        "area_en": "Goyang",
        "area_kr": "고양",
        "address_en": "Goyang, Gyeonggi-do",
        "address_kr": "경기도 고양"
      },
      "city_key": "goyang",
      "army_density": {
        "value": 60,
        "level_en": "Medium",
        "level_kr": "보통",
        "label_en": "ARMY 60%",
        "label_kr": "아미 60%"
      },
      "distance": {
        "type": "car",
        "display_en": "Drive 5min",
        "minutes": 5,
        "distance_km": 2.6
      },
      "transport": {
        "station_en": "Jeongbalsan",
        "line_en": "Line 3",
        "line_color": "#EF7C1C",
        "display_en": "Jeongbalsan (Line 3)"
      },
      "safe_return": {
        "venue_en": "Goyang Stadium",
        "route_en": "Goyang Stadium → Jeongbalsan (Line 3) → Hotel",
        "transport": "subway",
        "time_min": 25,
        "last_train": "23:50",
        "taxi_krw": 0
      },
      "army_local_guide": {
        "bts": [
          {
            "name_en": "MBC Sangam",
            "spot_tag": "Music Show",
            "description_en": "Music show filming",
            "distance_km": 16.2,
            "lat": 37.5786,
            "lng": 126.8918
          },
          {
            "name_en": "Hongdae Busking Street",
            "spot_tag": "Trainee Memory",
            "description_en": "Pre-debut busking spot",
            "distance_km": 19.9,
            "lat": 37.5563,
            "lng": 126.922
          },
          {
            "name_en": "Gwangjang Market",
            "spot_tag": "Debut Memory",
            "description_en": "2013 debut location",
            "distance_km": 25.6,
            "lat": 37.57,
            "lng": 127.0098
          }
        ],
        "restaurant": [
          {
            "name_en": "Western Dom Food Court",
            "spot_tag": "Food Court",
            "description_en": "Food court",
            "distance_km": 1.5,
            "lat": 37.663,
            "lng": 126.762
          },
          {
            "name_en": "La Festa Restaurants",
            "spot_tag": "Dining Hub",
            "description_en": "Restaurant complex",
            "distance_km": 2.4,
            "lat": 37.6575,
            "lng": 126.7705
          },
          {
            "name_en": "Ilsan Food Street",
            "spot_tag": "Local Eats",
            "description_en": "Local food street",
            "distance_km": 2.5,
            "lat": 37.658,
            "lng": 126.772
          }
        ],
        "cafe": [
          {
            "name_en": "Ilsan Lake Park Cafe Street",
            "spot_tag": "Lake View",
            "description_en": "Scenic cafes",
            "distance_km": 1.7,
            "lat": 37.659,
            "lng": 126.76
          },
          {
            "name_en": "La Festa Cafes",
            "spot_tag": "Trendy Cafe",
            "description_en": "Trendy cafes",
            "distance_km": 2.5,
            "lat": 37.6572,
            "lng": 126.771
          }
        ],
        "hotspot": [
          {
            "name_en": "One Mount",
            "spot_tag": "Entertainment",
            "description_en": "Theme park",
            "distance_km": 0.7,
            "lat": 37.665,
            "lng": 126.751
          },
          {
            "name_en": "Ilsan Lake Park",
            "spot_tag": "Must Visit",
            "description_en": "Beautiful lake park",
            "distance_km": 1.7,
            "lat": 37.658,
            "lng": 126.759
          },
          {
            "name_en": "Starfield Goyang",
            "spot_tag": "Shopping",
            "description_en": "Shopping mall",
            "distance_km": 13.1,
            "lat": 37.645,
            "lng": 126.895
          }
        ]
      },
      "map_detail": {
        "hotel": {
          "name_en": "Hotel Claum Ilsan",
          "lat": 37.6715,
          "lng": 126.7495
        },
        "venue": {
          "name_en": "Goyang Stadium",
          "lat": 37.6556,
          "lng": 126.7714
        },
        "nearby_spots": [
          {
            "name_en": "One Mount",
            "category": "hotspot",
            "spot_tag": "Entertainment",
            "lat": 37.665,
            "lng": 126.751,
            "distance_km": 0.7
          },
          {
            "name_en": "Western Dom Food Court",
            "category": "restaurant",
            "spot_tag": "Food Court",
            "lat": 37.663,
            "lng": 126.762,
            "distance_km": 1.5
          },
          {
            "name_en": "Ilsan Lake Park Cafe Street",
            "category": "cafe",
            "spot_tag": "Lake View",
            "lat": 37.659,
            "lng": 126.76,
            "distance_km": 1.7
          },
          {
            "name_en": "Ilsan Lake Park",
            "category": "hotspot",
            "spot_tag": "Must Visit",
            "lat": 37.658,
            "lng": 126.759,
            "distance_km": 1.7
          },